{
   "html_attributions" : [],
   "next_page_token" : "CpQCAgEAALKmwloUWkvWSLk5JZYuV-4dP1GqhspmIXi1hXUTMz6FzwhQuo05aU8JIuKP7lDuMi0lG3YMmwszOlsYTeL9uf_22mpW5P8VYgiMStqt1MeFlqBMfAdWCHRIcN3ztP4rvbupCvmQfqeKjP6dvpzsOhFX2y49Lalj46XrEJCV2vy37600oYi8zXmp9SoHzZ5YDt81RYYhac8e5ahFXWJO75aeob8NixdVUUTpOmVHTetziQ7JdUAG0qpFx6vCTfNI7ESx3TroArnQmGILQ0_dFPSlF7M3VasuCYSej8h1LHdJCqHeOgo3_nTq5_Kfl24S8L5VsJYs1zeO1_GAYD0I3qwVTp-gAiSZ1dxsz-HCbNEjEhDLPRWhk7lW0uWh-eFLa22vGhTIeCGa-ZM-26oATma2U-JR4Ax3xQ",
   "results" : [
      {
         "geometry" : {
            "location" : {
               "lat" : 26.9146189,
               "lng" : 75.8285058
            },
            "viewport" : {
               "northeast" : {
                  "lat" : 26.9159678802915,
                  "lng" : 75.82985478029151
               },
               "southwest" : {
                  "lat" : 26.9132699197085,
                  "lng" : 75.82715681970849
               }
            }
         },
         "icon" : "https://maps.gstatic.com/mapfiles/place_api/icons/school-71.png",
         "id" : "1ce5bf63a4718f3123e0098888136c0a105cacc7",
         "name" : "Patanjali Chikitsalaya",
         "opening_hours" : {
            "open_now" : true,
            "weekday_text" : []
         },
         "photos" : [
            {
               "height" : 1280,
               "html_attributions" : [
                  "\u003ca href=\"https://maps.google.com/maps/contrib/101002202881503358224/photos\"\u003egaurishankar soni\u003c/a\u003e"
               ],
               "photo_reference" : "CmRaAAAAqHkALZbWM_z9OXNypRDw_YJyio0Ko21gSXxVgkfN3uQiFfG0WO5lvpoqe6BhVi5Oi-r9gQurvzv327IgJITHDeNW4gA9x2dBDghz3gby_pTrLTq4UUn1_sMnOPSZZsMwEhDoDNzdzwSLaETvRTfkg6CGGhT0Ob_HmQwgQ98iObCU7kc4jv_IxA",
               "width" : 720
            }
         ],
         "place_id" : "ChIJU5_DVMS2bTkRB0BKFX9kMZ0",
         "rating" : 4.4,
         "reference" : "CmRSAAAA4ReNtKvbP1gaOdcAVGpcwex0SE4py3Yw_E7w8ccLOenqooWeQAcAzHxr1NlRFKG8VZ2CTWkRWjDnxLJrSH8LbM_GGAjQxZp6_1PEmfkPYdUCecDl13chkNh9yRzCFLp0EhAfTe4zBX6TpIF9X5Sk9uXiGhRe--jXmWmk37gsbJ23FXd82nFcKw",
         "scope" : "GOOGLE",
         "types" : [ "gym", "health", "point_of_interest", "establishment" ],
         "vicinity" : "Hindi Bhawan, Near BSNL, Sanganeri Gate, Agra Road, Jaipur"
      },
      {
         "geometry" : {
            "location" : {
               "lat" : 26.915784,
               "lng" : 75.80702699999999
            },
            "viewport" : {
               "northeast" : {
                  "lat" : 26.9171329802915,
                  "lng" : 75.8083759802915
               },
               "southwest" : {
                  "lat" : 26.9144350197085,
                  "lng" : 75.80567801970848
               }
            }
         },
         "icon" : "https://maps.gstatic.com/mapfiles/place_api/icons/generic_business-71.png",
         "id" : "d8fede1e1b82e010ed0353176984f3cd1f797bb0",
         "name" : "SURBHI MISRA SPORTS FOUNDATION",
         "place_id" : "ChIJ30cJdaq2bTkRCUAnIav8o0A",
         "reference" : "CmRRAAAA9xII6DPp0itpR_gHqAh5vhVgSU4Kgdju5jUEiNVvIL7gNImNDD4KVNbVFcWJpfygBYpGGaMa8xQ8SInpVCE4a_OAbrFQDOeHcga5_yylXaufZk-I1vW55XJYx7YeFlOIEhC3e1Axy8sHsJXrsLeYamBDGhSfwutTB2Kf1O2O2aR34c8B1oKrvQ",
         "scope" : "GOOGLE",
         "types" : [ "gym", "health", "point_of_interest", "establishment" ],
         "vicinity" : "402, Geeta Enlave,Vinoba Marg, C-, C Scheme, Ashok Nagar, Jaipur"
      },
      {
         "geometry" : {
            "location" : {
               "lat" : 26.9216794,
               "lng" : 75.8073105
            },
            "viewport" : {
               "northeast" : {
                  "lat" : 26.9230406802915,
                  "lng" : 75.80862698029151
               },
               "southwest" : {
                  "lat" : 26.9203427197085,
                  "lng" : 75.8059290197085
               }
            }
         },
         "icon" : "https://maps.gstatic.com/mapfiles/place_api/icons/generic_business-71.png",
         "id" : "6628f003ed32cfc4a6c1a1426edfbb7879052ba5",
         "name" : "Gold Gym",
         "place_id" : "ChIJX0DIZlWxbTkRSwkQET3L6kg",
         "rating" : 4.5,
         "reference" : "CmRRAAAADoUWc9ep8wFY1ozSlIKC3aD9r6IP6v5hTOmL0jIMjO-N9Q1J-vK_isuQUU61WuG1xLIQ2ffWZIV8pMUUqNzSBI2UzmPnFlXM07TVGFQTttLkOFgmryS1ixzgoW_vXESAEhAbwqcOvTTwWrK2ai6wJn5PGhSEWK4S2ZfL0KR2CF9XlJahZwRoEQ",
         "scope" : "GOOGLE",
         "types" : [ "gym", "health", "point_of_interest", "establishment" ],
         "vicinity" : "Jaipura Link Road, Pink City, Jaipur"
      },
      {
         "geometry" : {
            "location" : {
               "lat" : 26.9156195,
               "lng" : 75.8062839
            },
            "viewport" : {
               "northeast" : {
                  "lat" : 26.9169633302915,
                  "lng" : 75.8076483802915
               },
               "southwest" : {
                  "lat" : 26.9142653697085,
                  "lng" : 75.80495041970849
               }
            }
         },
         "icon" : "https://maps.gstatic.com/mapfiles/place_api/icons/generic_business-71.png",
         "id" : "768cf0c55303d0c0b323da2222fba75b4527e39f",
         "name" : "little master cricket academy",
         "place_id" : "ChIJVctr3QG0bTkR1WtT35twNKI",
         "rating" : 3,
         "reference" : "CmRSAAAAcf1X34UqH6XQ7kMBY3H57KdHNbS5wuvVL95zDISYqhlNXKRhX__l2JDEe_lofJTvHt_-7vVysCKY2kIhA8rtUvwRcrokRsyHNvgXxaAdrfafPeLYXwtZ14Ko_VFUEUdcEhBLgojvY7rGdlhokt0L4qWfGhRDJ0ygqQtjEnKb3lSfFthEP3B_wA",
         "scope" : "GOOGLE",
         "types" : [ "gym", "health", "point_of_interest", "establishment" ],
         "vicinity" : "E-95/96, Subhash Marg, C Scheme, Ashok Nagar, Jaipur"
      },
      {
         "geometry" : {
            "location" : {
               "lat" : 26.91400539999999,
               "lng" : 75.80591079999999
            },
            "viewport" : {
               "northeast" : {
                  "lat" : 26.9153543802915,
                  "lng" : 75.8072597802915
               },
               "southwest" : {
                  "lat" : 26.91265641970849,
                  "lng" : 75.8045618197085
               }
            }
         },
         "icon" : "https://maps.gstatic.com/mapfiles/place_api/icons/generic_business-71.png",
         "id" : "83a9eba7bc6562eac582d8512ae8d38e4f5b88aa",
         "name" : "Anytime Fitness Jaipur",
         "opening_hours" : {
            "open_now" : true,
            "weekday_text" : []
         },
         "place_id" : "ChIJ6aj_0AO0bTkRjKktTijbtBU",
         "rating" : 4.9,
         "reference" : "CmRRAAAAf9e7F7l7dRlyuseEwGf_IYMVNRRD_kkZkfI84sdEHGfaxu2ACZbFV5aqc2-HFHkYfZh7FloJEQJlCEdyX-Q9dMp5HLLwz5jvBDVVKZqOT7-CioLg_snPTGIGOlB7Ar1kEhD9JEBjpDlHPlyY3gYs1TQEGhTlYBZCF2cylOfP8Af6cvZfiJqPSQ",
         "scope" : "GOOGLE",
         "types" : [ "gym", "health", "point_of_interest", "establishment" ],
         "vicinity" : "2nd Floor, Landmark Building, Ahinsa Circle, C Scheme, Jaipur"
      },
      {
         "geometry" : {
            "location" : {
               "lat" : 26.9224233,
               "lng" : 75.80504959999999
            },
            "viewport" : {
               "northeast" : {
                  "lat" : 26.9237722802915,
                  "lng" : 75.8063985802915
               },
               "southwest" : {
                  "lat" : 26.9210743197085,
                  "lng" : 75.80370061970849
               }
            }
         },
         "icon" : "https://maps.gstatic.com/mapfiles/place_api/icons/generic_business-71.png",
         "id" : "ac87290fe4c957f1f581493d76ce6cb51d1a420c",
         "name" : "Imperative",
         "place_id" : "ChIJI9lThuWzbTkRexIauTFK_-A",
         "reference" : "CmRSAAAAoOskdE9eQVbnPO1H-8N6pLOCwQeIbZOqhMeErJgXeSgC05pmbRI5OshKckrHZYzus0Z5mHlWIru27sPubnmzuuDzIa8KlwkRuIPj_fFDV9JZEjyLboKKyzKjEUxUrEOlEhAXFVVgvO-ilHmr9OrtRS0kGhTqYIL0tNhHqU8_C4BZpPP_c1pj2g",
         "scope" : "GOOGLE",
         "types" : [ "gym", "beauty_salon", "health", "point_of_interest", "establishment" ],
         "vicinity" : "B-9, Near Amber Tower City Centre, Sansar Chandra Road, Sansar Chandra Road, Jaipur"
      },
      {
         "geometry" : {
            "location" : {
               "lat" : 26.91921899999999,
               "lng" : 75.813902
            },
            "viewport" : {
               "northeast" : {
                  "lat" : 26.9205679802915,
                  "lng" : 75.81525098029151
               },
               "southwest" : {
                  "lat" : 26.9178700197085,
                  "lng" : 75.81255301970849
               }
            }
         },
         "icon" : "https://maps.gstatic.com/mapfiles/place_api/icons/generic_business-71.png",
         "id" : "c9f47ff861dee1e7aecbdd1b3a7cc3e653b0cfce",
         "name" : "NI3 MOBILE Shop",
         "opening_hours" : {
            "open_now" : true,
            "weekday_text" : []
         },
         "photos" : [
            {
               "height" : 581,
               "html_attributions" : [
                  "\u003ca href=\"https://maps.google.com/maps/contrib/113961384573845026355/photos\"\u003eNI3 MOBILE Shop\u003c/a\u003e"
               ],
               "photo_reference" : "CmRaAAAA8nbwSYxRGA1cjjH5mQPE459ViHHCoPBYeWiNnNlVDuYO2X1g07EE2ViXrOMwcHbgs3QggpY-PHtAzwn6mJq2Kab43M_gbmluQqptNRj1FE_gTY1D1F4Eewfa3nC5axg1EhB5QC17ZfkqrChnQ_xIxbBwGhR9yi1lH4HfJ58xIIr5ilfxZF8PEg",
               "width" : 1032
            }
         ],
         "place_id" : "ChIJ89Mhvqy2bTkRTiOhyyx9gYw",
         "rating" : 5,
         "reference" : "CmRSAAAARDGP5L_YVXbNZidHYAI_SnZSzeTXWFgfIwAmWNV-QpFpYtPiTMCjkZHcNvvPkJNMcpB5y7ynRkPnYHb9xeYEPF-Uh4NdNz4TeMyQ9t97TPx2nTVHkD89e5ExSPBVU2s4EhBgct1bce3jy93r_SQCovHEGhR6SB5rizZK_AJKAKrmaeCdCZDutQ",
         "scope" : "GOOGLE",
         "types" : [ "gym", "spa", "health", "point_of_interest", "establishment" ],
         "vicinity" : "SHOP Number B-120, RASIER Plaza, Indra Market Jaipur, Jaipur"
      },
      {
         "geometry" : {
            "location" : {
               "lat" : 26.9186355,
               "lng" : 75.81889459999999
            },
            "viewport" : {
               "northeast" : {
                  "lat" : 26.9199844802915,
                  "lng" : 75.8202435802915
               },
               "southwest" : {
                  "lat" : 26.91728651970849,
                  "lng" : 75.81754561970848
               }
            }
         },
         "icon" : "https://maps.gstatic.com/mapfiles/place_api/icons/generic_business-71.png",
         "id" : "93e1e89eb3d75f1bad8663d28e8e27d4df65fbf8",
         "name" : "N S Fitness Gym",
         "place_id" : "ChIJ____g7K2bTkRJavg9aMLxcg",
         "reference" : "CmRSAAAACAVteJ1IraIJ4knDtaG0rqYZ8GUkbsOGAVAAsRGG4OfKIcorjuIQ9J-QAAlEwQdw6xzSMy5smoU5Xu3FXpJavOvOA-AhfsJfAk_UgeuMtwWLJWJM1irXIayQJlaHAgBbEhDKkb0Hl-Pd_C25X1aK1ZaDGhRMgquNzZG5_QptWSgjIOhsYfW7GA",
         "scope" : "GOOGLE",
         "types" : [ "gym", "health", "point_of_interest", "establishment" ],
         "vicinity" : "1795, Nehru Bazar, Modikhana, Jaipur"
      },
      {
         "geometry" : {
            "location" : {
               "lat" : 26.9219705,
               "lng" : 75.8183114
            },
            "viewport" : {
               "northeast" : {
                  "lat" : 26.9232982302915,
                  "lng" : 75.81975613029151
               },
               "southwest" : {
                  "lat" : 26.9206002697085,
                  "lng" : 75.81705816970849
               }
            }
         },
         "icon" : "https://maps.gstatic.com/mapfiles/place_api/icons/generic_business-71.png",
         "id" : "247e7acc89fb0b6d42a23948f82518af0a2cdf02",
         "name" : "S K Fitness Company",
         "place_id" : "ChIJ-SBaSa22bTkRX7Bd-uZ6Ok4",
         "reference" : "CmRRAAAAKGm32zeKgvoyCQn5_cd7kHWEM1EIHjoBMJrj_CieYJrvfSXWcWSisOGxJ5pqDgiuZ8DU8ALwMyArqrsSxRXJ1Wfci_6YADnxrsZCfz_J-aj29_V0SgA6IFJ6W5ngCi1aEhCHfvyK9u5WoOXxOaDfeGNUGhQJoO_iiymKFik9O3PDW8_yhybRpw",
         "scope" : "GOOGLE",
         "types" : [ "gym", "storage", "health", "point_of_interest", "establishment" ],
         "vicinity" : "Shop No 265, Sanghon Ka Rasta, Sanghon Ka Rasta, Kishanpole Bazar, Jaipur"
      },
      {
         "geometry" : {
            "location" : {
               "lat" : 26.92247,
               "lng" : 75.81945
            },
            "viewport" : {
               "northeast" : {
                  "lat" : 26.9238189802915,
                  "lng" : 75.82079898029151
               },
               "southwest" : {
                  "lat" : 26.9211210197085,
                  "lng" : 75.81810101970849
               }
            }
         },
         "icon" : "https://maps.gstatic.com/mapfiles/place_api/icons/generic_business-71.png",
         "id" : "53d3ff6ee1fc742b70671bda2aabc0bf99b71896",
         "name" : "Fitnesh Point Gym",
         "place_id" : "ChIJL9mqQ02xbTkR7jThZgkmar8",
         "reference" : "CmRSAAAALiIr6GBdiMGcAf7BoLGru3kkHo8ijOv8VehDMROWQ0hnM1f6fsbrQgJl2LSVSw9bvHsU6p4BaKTjawht56izgZdcW5u4Yma_Xb-anbVi32Tr7UzY3xaW9mTLmoqUi6P2EhA5KDIns5tHQelpn3jxrOjDGhR0JWY7y31t0pPosyzgMObiaJXEIw",
         "scope" : "GOOGLE",
         "types" : [ "gym", "health", "point_of_interest", "establishment" ],
         "vicinity" : "Maniyarn Ka Rasta, Radio Market, Panch Batti, Jaipur"
      },
      {
         "geometry" : {
            "location" : {
               "lat" : 26.91567239999999,
               "lng" : 75.8222425
            },
            "viewport" : {
               "northeast" : {
                  "lat" : 26.9170213802915,
                  "lng" : 75.82359148029151
               },
               "southwest" : {
                  "lat" : 26.91432341970849,
                  "lng" : 75.82089351970849
               }
            }
         },
         "icon" : "https://maps.gstatic.com/mapfiles/place_api/icons/generic_business-71.png",
         "id" : "a2cfe25c3f5797d30ab8dc9f97f0c334a25bd316",
         "name" : "Just Azhar Khan",
         "opening_hours" : {
            "open_now" : true,
            "weekday_text" : []
         },
         "place_id" : "ChIJ5zS8YrG2bTkRU5mFX1cTAn0",
         "reference" : "CmRRAAAAesS241Z-5jEKMmng7julhbXWvuiLDwVh8h8aegDYF6hfnbhPGC68bfsCB8mrJZvtRh9Uozx5Orw5ps5beg2avqIsMVDRlw8J2mU3Gsbw8Xh2IbnTwEnQynfuZfy5Cd4FEhD2_4Qo-gDifoe1g48mwjNrGhQ_-S7DzMKljZg1KKOefNFgBA0MKQ",
         "scope" : "GOOGLE",
         "types" : [ "gym", "health", "point_of_interest", "establishment" ],
         "vicinity" : "Fateh Tibba, Adarsh Nagar, Jaipur"
      },
      {
         "geometry" : {
            "location" : {
               "lat" : 26.9208855,
               "lng" : 75.82285399999999
            },
            "viewport" : {
               "northeast" : {
                  "lat" : 26.9222344802915,
                  "lng" : 75.8242029802915
               },
               "southwest" : {
                  "lat" : 26.9195365197085,
                  "lng" : 75.82150501970848
               }
            }
         },
         "icon" : "https://maps.gstatic.com/mapfiles/place_api/icons/generic_business-71.png",
         "id" : "0939d8ca7a8412a40c38f391d662bfe7e4c0c983",
         "name" : "Madhav.tanch",
         "opening_hours" : {
            "open_now" : true,
            "weekday_text" : []
         },
         "place_id" : "ChIJxyzlN7O2bTkRaaDgcFE21yk",
         "reference" : "CmRRAAAAVDl1H_AZI8OLi79vJ-2H90w3RuRkVa4PDd829kPkk7IvVZ0hMUdi_cOGBJrJr9v50g94CTa4cQrCHwNEk6_v63TCOtBt0p3dByugoQ25OFGjawXQZY1jyu5Svbjk8mRcEhAF7m0DVzwaneHD0T2uVDRgGhTP56ul6MZDyJshc5SyftWzhApBMw",
         "scope" : "GOOGLE",
         "types" : [ "gym", "health", "point_of_interest", "establishment" ],
         "vicinity" : "Nana Ji Ki Gali, Bapu Bazar, Pink City, Jaipur"
      },
      {
         "geometry" : {
            "location" : {
               "lat" : 26.92576,
               "lng" : 75.81703
            },
            "viewport" : {
               "northeast" : {
                  "lat" : 26.9271089802915,
                  "lng" : 75.81837898029151
               },
               "southwest" : {
                  "lat" : 26.9244110197085,
                  "lng" : 75.81568101970849
               }
            }
         },
         "icon" : "https://maps.gstatic.com/mapfiles/place_api/icons/generic_business-71.png",
         "id" : "8108b986a49de2642576f21b50391a229a588723",
         "name" : "India International Gym",
         "place_id" : "ChIJXxuSPVKxbTkRbz-o6i6mRMo",
         "reference" : "CmRSAAAAapduIFQVqWmhV7DpkLgbmH3f87E2A3EBknZQw4rUqHnA95tScLV7v6G4KyirDItw0TD7MC0KtkcrPZHFLUFhi7FLeO2Qz_cPCNM4Oa7hChVv0DnAu9YSa8CjsKnDLT0XEhAdLXxWu5_9kCuoaH-boY04GhRZpUa0LqtevZEChTTg81VDYJumUg",
         "scope" : "GOOGLE",
         "types" : [ "gym", "health", "point_of_interest", "establishment" ],
         "vicinity" : "Sansar Chandra Road, Sansar Chandra Road, Sansar Chandra Road, Jaipur"
      },
      {
         "geometry" : {
            "location" : {
               "lat" : 26.9259322,
               "lng" : 75.81647599999999
            },
            "viewport" : {
               "northeast" : {
                  "lat" : 26.9273819802915,
                  "lng" : 75.81785848029151
               },
               "southwest" : {
                  "lat" : 26.9246840197085,
                  "lng" : 75.8151605197085
               }
            }
         },
         "icon" : "https://maps.gstatic.com/mapfiles/place_api/icons/generic_business-71.png",
         "id" : "49c95c813aa6e33960c7e4f52bad4dc7e52cb04f",
         "name" : "Bajrang Akhada",
         "place_id" : "ChIJty3MOlKxbTkRnQfvNSioBbs",
         "reference" : "CmRSAAAArfdIRabTUSAPNgvNiv-XLfGnzJ4hxffQ19N-_RBHnjnsRH8YOufiD-_eK58lmkH9MNhD6YMwGQWuaj3_8m2ZN7cC8Uw9-rA4mXSqAD-fnVv3n5KYO7Zo-4mDPawih9nIEhDN21rBE_Ab9kk3akmWlSEPGhS-1hqCO6xroM-xkoli0Y73olgkGQ",
         "scope" : "GOOGLE",
         "types" : [ "gym", "health", "point_of_interest", "establishment" ],
         "vicinity" : "Madhopuriyo Ka Chowk, Deena Naat Ji Ki Galli, Pink City, Jaipur"
      },
      {
         "geometry" : {
            "location" : {
               "lat" : 26.9248653,
               "lng" : 75.8115256
            },
            "viewport" : {
               "northeast" : {
                  "lat" : 26.9262253302915,
                  "lng" : 75.8128198802915
               },
               "southwest" : {
                  "lat" : 26.9235273697085,
                  "lng" : 75.81012191970849
               }
            }
         },
         "icon" : "https://maps.gstatic.com/mapfiles/place_api/icons/generic_business-71.png",
         "id" : "07a4c5b330f3c9147c483eb7dc53f340193dfbb6",
         "name" : "Shree Kalayan Vayamshala",
         "opening_hours" : {
            "open_now" : false,
            "weekday_text" : []
         },
         "place_id" : "ChIJv-v7FFSxbTkRoF-smMrwlxE",
         "reference" : "CmRRAAAArRm7wj5ktKCtUgZBg7SdQl8zDTQwZld5qNHLGTfNCqcoJL_nGRQ_KQ3uqKZk_vgxzae81bdbLhFEw29kJkEUCy3qWdwjQDgbikopYkPHjq6ApGf-7RsI-bxOwGA5f0buEhCWI0CWtN4genohYotvlwRgGhR7FDSQYM4fB-rDNuFeKj1uA84aug",
         "scope" : "GOOGLE",
         "types" : [ "gym", "health", "point_of_interest", "establishment" ],
         "vicinity" : "kalyan ji ka rasta, Chandpol Bazar, Jaipur"
      },
      {
         "geometry" : {
            "location" : {
               "lat" : 26.9110268,
               "lng" : 75.8109537
            },
            "viewport" : {
               "northeast" : {
                  "lat" : 26.9123867802915,
                  "lng" : 75.81227613029151
               },
               "southwest" : {
                  "lat" : 26.9096888197085,
                  "lng" : 75.8095781697085
               }
            }
         },
         "icon" : "https://maps.gstatic.com/mapfiles/place_api/icons/generic_business-71.png",
         "id" : "2aeea7daeb36ed233351a16b715b966da19e71e5",
         "name" : "Royal Wellness Spa",
         "photos" : [
            {
               "height" : 960,
               "html_attributions" : [
                  "\u003ca href=\"https://maps.google.com/maps/contrib/101776858557633165559/photos\"\u003eShubhranshu Shubh\u003c/a\u003e"
               ],
               "photo_reference" : "CmRaAAAAiuxCKDcJWKl6c0n5_vR9sfsYPkixJ7rG9PkJFSqpnI9jfaW74nr_CFLchqtBJVnvGsCT-ohmULuLcLOJ4PI2v8yFuhnomwC7BcWkLh2XQn028JsYP3VWzeqDqsyLCAsdEhBBNz0TzCCO2ePbTKJDsUO2GhTaEEJ-tzW6IaHuCqCCb6sCO2xwnA",
               "width" : 1280
            }
         ],
         "place_id" : "ChIJCQoQ5qi2bTkRKCYuzFDRZyg",
         "rating" : 4,
         "reference" : "CmRRAAAABtB7qyTQGMYWzvFG1OMKX-Dk3d5qm86yY6kr1bQ7Gs_TOQ7XNxxWFIkmlTf0-3dySt2zM-Dxmsuxi1IgseODDvvOwSKxVPyuArxLx5GpsgQHgWTWTlerAP5_ocF_nNLOEhAkWLXR5aeysg9vYcftHc4jGhTtf6RPQy_ZDOv4jryhSGRmxsXsWg",
         "scope" : "GOOGLE",
         "types" : [ "gym", "health", "point_of_interest", "establishment" ],
         "vicinity" : "9, Mahavir Marg, Panch Batti, Sangram Colony, Ashok Nagar, Jaipur"
      },
      {
         "geometry" : {
            "location" : {
               "lat" : 26.92677,
               "lng" : 75.81994
            },
            "viewport" : {
               "northeast" : {
                  "lat" : 26.9281189802915,
                  "lng" : 75.82128898029151
               },
               "southwest" : {
                  "lat" : 26.9254210197085,
                  "lng" : 75.81859101970851
               }
            }
         },
         "icon" : "https://maps.gstatic.com/mapfiles/place_api/icons/school-71.png",
         "id" : "798e924983cda39f663b14bb1236f08c99b26fc6",
         "name" : "Nana Pahalwan",
         "place_id" : "ChIJQ9eZ4E2xbTkR1NPpsyh-bJI",
         "rating" : 3,
         "reference" : "CmRSAAAA8bvPKU81sEF1ZdlTG4UCzI-XUUqFp86SR2AhTuq4E_elCxItY5dnq2-GoFfl2K8iqvsLBl0-YDUICzLTp-sDVMXW6OfVQoBGZWRjJ2L7pz8NMndhj9KLzAJIWMM9jPJ6EhBKWtPr3cPqkwPQ-aEwdW1AGhRrvBQFQ-xjwKEsRMp6SfnZp-Zd6A",
         "scope" : "GOOGLE",
         "types" : [ "gym", "health", "point_of_interest", "establishment" ],
         "vicinity" : "Chini Ki Burji, Chini Ki Burji, Shardul Singh Ki Naal, Gangori Bazar, Jaipur"
      },
      {
         "geometry" : {
            "location" : {
               "lat" : 26.9278874,
               "lng" : 75.8149157
            },
            "viewport" : {
               "northeast" : {
                  "lat" : 26.92921418029151,
                  "lng" : 75.8162586302915
               },
               "southwest" : {
                  "lat" : 26.9265162197085,
                  "lng" : 75.81356066970849
               }
            }
         },
         "icon" : "https://maps.gstatic.com/mapfiles/place_api/icons/generic_business-71.png",
         "id" : "03aed31131cad69a613c0766c3dc1094f73ef8f4",
         "name" : "accurate gym",
         "place_id" : "ChIJ-cqmclGxbTkRbRSkTPbOshY",
         "reference" : "CmRRAAAAzfjSf8F8hsJ5coDbhUehgVrDyH9hzENl2eIQ1AZXKgC8MMTFCSbWJMJh6_7AyLob1ewNir6jwU_w-PKKfagCexbSv3RyGep_5S8z0q7wMUYueF0JHsd9xHmBEgdjhBbiEhCGRPoCpImSBonBtQzc7DOtGhREyv3KyjsLBR99e_k3OYcCUPMGIQ",
         "scope" : "GOOGLE",
         "types" : [ "gym", "health", "point_of_interest", "establishment" ],
         "vicinity" : "1773, Palli Walo Ka Rasta, Chandpole, Purani Basti, Jaipur"
      },
      {
         "geometry" : {
            "location" : {
               "lat" : 26.92675,
               "lng" : 75.81045999999999
            },
            "viewport" : {
               "northeast" : {
                  "lat" : 26.9280989802915,
                  "lng" : 75.8118089802915
               },
               "southwest" : {
                  "lat" : 26.9254010197085,
                  "lng" : 75.80911101970848
               }
            }
         },
         "icon" : "https://maps.gstatic.com/mapfiles/place_api/icons/generic_business-71.png",
         "id" : "211a4c7fd6cf0c4c8c18b32074c44d924208f2b7",
         "name" : "Roots To Wins",
         "place_id" : "ChIJP7RdhVaxbTkRt6SMqGRazHw",
         "reference" : "CmRRAAAAMV2BoDECB9y3tGque8fe9-yp7tddD5Cwz2isG8sISlgcRfk26o_P4dXY01g0C7eq329utl0w8Eftf8MBaqXg_oov1nAqWz1BTW-zwcp6rTBfLCaij-TU4gOogFvWHFsiEhBjP61FTa74-Y7FaQ1C4xVhGhRmjwZDu3p1iiRfiAW18b1LVthcpQ",
         "scope" : "GOOGLE",
         "types" : [ "gym", "health", "point_of_interest", "establishment" ],
         "vicinity" : "Raghav Marg Hanuman Nagar, Raghav Marg Hanuman Nagar, Near Mandir, Vaishali Nagar, Jaipur"
      },
      {
         "geometry" : {
            "location" : {
               "lat" : 26.9272724,
               "lng" : 75.8218849
            },
            "viewport" : {
               "northeast" : {
                  "lat" : 26.92862138029151,
                  "lng" : 75.82323388029151
               },
               "southwest" : {
                  "lat" : 26.9259234197085,
                  "lng" : 75.8205359197085
               }
            }
         },
         "icon" : "https://maps.gstatic.com/mapfiles/place_api/icons/generic_business-71.png",
         "id" : "13a9d6c1c3811e637e010acce312e769694e6f12",
         "name" : "NAZZ ARCHITECTURE SERVICES",
         "place_id" : "ChIJJZgSgk6xbTkRPPzZ6Fd5PT8",
         "reference" : "CmRRAAAALM-sKspZdOSgvZsk7_h2bXPMZBR7lH6GJWCYnHKPZNZ0JopPiD9SiV874nPniPEK1aI1-dqXxT-NhdY0OURmTi5-nGLWfNWEj_92eXax214iL_OTxwIwNRTD3Zdz7F6BEhCrWazWBv5mAP-NK7KO8veNGhT3mcbjbWhi5NJDTrEve7BieSpSCw",
         "scope" : "GOOGLE",
         "types" : [ "gym", "health", "point_of_interest", "establishment" ],
         "vicinity" : "A-10, Chandra Mahal Colony, Jaipur"
      }
   ],
   "status" : "OK"
}
