{
   "html_attributions" : [],
   "next_page_token" : "CpQCBQEAAONtqyMfedWrHCufTw6Ur5572lfFvwYQrBm-Wd0AJzq665rNOtHzZTypBzL5Ik963d4p-52ZR9iT0es-FiAjp6HsQ0htGP5VsJFvSaHS3kIPHuw7d0mpTN9Wr54o1xu23LoKPgDvPM3cZVzMPD9Rh_L6D1kfDmoBVh6grBn2dnxcKsmcSY2syagz5bRFZOtE-M8kW2cqbRhF990FpNo6dU-RuoMTrPk8c2gw_lL6tz11ro-ln2vLBjD3c0UNDtYLIINODV7buV0-fv6mESCUycgfE-04J_YcOuh1Z5S5k5paH36VQS-GPgtwe5bDdgvnGH-3OclE7KvESUB2EnadDD47j3pmlR_cFa0kC71KEpBzEhAxYGM726FwB9gUBBk8pA_BGhQzVgk7j5icggT3bfSEYSefMrz0oA",
   "results" : [
      {
         "geometry" : {
            "location" : {
               "lat" : 26.8576096,
               "lng" : 75.8152281
            },
            "viewport" : {
               "northeast" : {
                  "lat" : 26.8589585802915,
                  "lng" : 75.81657708029151
               },
               "southwest" : {
                  "lat" : 26.8562606197085,
                  "lng" : 75.81387911970849
               }
            }
         },
         "icon" : "https://maps.gstatic.com/mapfiles/place_api/icons/doctor-71.png",
         "id" : "18697b3381683b8b21139cea0e2957802c6736e8",
         "name" : "Rungta Hospital",
         "opening_hours" : {
            "open_now" : true,
            "weekday_text" : []
         },
         "photos" : [
            {
               "height" : 3088,
               "html_attributions" : [
                  "\u003ca href=\"https://maps.google.com/maps/contrib/115231031643491062745/photos\"\u003eKeshav Agarwal\u003c/a\u003e"
               ],
               "photo_reference" : "CmRaAAAA18y7fmgtlNrTdI6O1_p3z9EOIajQ7nughkCL_cBgSYhWep8PgZJRi3EshEOBVBQjv8uVruneUuIhxRI1fOTVBEGFSf8w4JJHbyu3OGFr-7GcmAizh1_HwfiyXkuyuAz2EhCwXOT19cP2wc83Eb0PuMuEGhTTNVTZetDAUcHhY3Xv8k3-8g3fYg",
               "width" : 3759
            }
         ],
         "place_id" : "ChIJAQAAAHS2bTkRkt01FODjins",
         "rating" : 3.3,
         "reference" : "CmRRAAAAZ8mdJ9a3r4IxMlaiOentVQRsoEcYGeT1cowCf1AHNQiW_wc0YBz1-iuZx8WBkoAvghHgeg-U0LfmCFM_iCzinbZFH7GUZ8eSJ2aRd60xwrATM8U8prhJOfy3NmaijORtEhBzSfsMm7f3PpgcaOr-sFDfGhTKqKllhbzug0PxAPJz2njJyAOyBQ",
         "scope" : "GOOGLE",
         "types" : [ "hospital", "point_of_interest", "establishment" ],
         "vicinity" : "Kalgiri Marg, Malviya Nagar, Jhalana Gram, Malviya Nagar, Jaipur"
      },
      {
         "geometry" : {
            "location" : {
               "lat" : 26.8520018,
               "lng" : 75.8103816
            },
            "viewport" : {
               "northeast" : {
                  "lat" : 26.85335078029151,
                  "lng" : 75.8117305802915
               },
               "southwest" : {
                  "lat" : 26.8506528197085,
                  "lng" : 75.80903261970849
               }
            }
         },
         "icon" : "https://maps.gstatic.com/mapfiles/place_api/icons/doctor-71.png",
         "id" : "8a8527fac96f8bc4a33858f3c34981e87746497d",
         "name" : "Advanced Neurology & Superspeciality Hospital",
         "photos" : [
            {
               "height" : 2340,
               "html_attributions" : [
                  "\u003ca href=\"https://maps.google.com/maps/contrib/114316916938236282494/photos\"\u003eShiv Raj Sharma\u003c/a\u003e"
               ],
               "photo_reference" : "CmRaAAAAAO2gLB-BAReYk6ZCvkOYsCqgUFPoG1k-IvNbx3N8PFtn-rXx0d6ssfB2ulsDOwJ-j4cZoM9PLjvZT0ofCFuBKaGW-kVr7Fhp0Klzb0gAOcQXKBRuvApkGBLRcoiPzi6VEhCVmGiikiCw_aWpexA4sAI-GhTfjAj5Y13Q9IvqeuIVDDVM2egcHg",
               "width" : 4160
            }
         ],
         "place_id" : "ChIJrUGzxHS2bTkRsTfDenzKh8U",
         "rating" : 4.5,
         "reference" : "CmRSAAAAO_JPqRzx8AX69_t-qC-SvFapB0vh8mD1Q_j3t4rUXx0twZGhQkJLY6tim85j1X1Gj7b6Zcz16PsTkQ1YDBl6HhSRlsN224JG8CpkcviGn-5eS-ROg-CHAl3EuPgtfFBWEhBGq0dbQ19GSHYrXOoIPXnuGhSURjUVgIbpyBb5m4cbRAC6KWS5NA",
         "scope" : "GOOGLE",
         "types" : [ "hospital", "point_of_interest", "establishment" ],
         "vicinity" : "D-358, Brain Tower, Near Gaurav Tower, Malviya Nagar, Jaipur"
      },
      {
         "geometry" : {
            "location" : {
               "lat" : 26.8575755,
               "lng" : 75.81134059999999
            },
            "viewport" : {
               "northeast" : {
                  "lat" : 26.8589244802915,
                  "lng" : 75.8126895802915
               },
               "southwest" : {
                  "lat" : 26.8562265197085,
                  "lng" : 75.8099916197085
               }
            }
         },
         "icon" : "https://maps.gstatic.com/mapfiles/place_api/icons/doctor-71.png",
         "id" : "ed7a8916a915b59448d0926214bb98c99c024155",
         "name" : "Kanodia Hospital",
         "opening_hours" : {
            "open_now" : true,
            "weekday_text" : []
         },
         "photos" : [
            {
               "height" : 1040,
               "html_attributions" : [
                  "\u003ca href=\"https://maps.google.com/maps/contrib/100589127674771337698/photos\"\u003eraman meena\u003c/a\u003e"
               ],
               "photo_reference" : "CmRaAAAAkCA_E11wdwfGzOHlC1C6COitydffiReLTGcrCm7pvKeLGpGVAooFOh1hn2jz9Slr6taWnCdOSHIZ480y9SS8h7BFnMBoFZsfAQs-_zAPf0S881TYAYSVlxMKOp1BGQ6nEhB2ENmjh26Pv-GFfPGlDW3iGhShubWE_P8qcurmUb8x1gylfOJe3Q",
               "width" : 780
            }
         ],
         "place_id" : "ChIJAQAAAHS2bTkRmK_aZnsZt3E",
         "rating" : 4.7,
         "reference" : "CmRRAAAAfASSTrY8vTLq5R81cjPwJCaJkRRHd141JF8cF3eoeLk69TpiNw5XffBtVN4hcY_17dIzQag3nH4189yuEm0KHu3YbBp46eiuz3H43vWXBfTZSj039AEgYUK7wJ4NnYhjEhBN441G-VYobkAzJjG3szCXGhSpuopZnyB27v0K-lmEipC1t_gFRQ",
         "scope" : "GOOGLE",
         "types" : [ "hospital", "point_of_interest", "establishment" ],
         "vicinity" : "C-256, Malviya Nagar, Jaipur"
      },
      {
         "geometry" : {
            "location" : {
               "lat" : 26.8526334,
               "lng" : 75.81122740000001
            },
            "viewport" : {
               "northeast" : {
                  "lat" : 26.8539312802915,
                  "lng" : 75.81249393029151
               },
               "southwest" : {
                  "lat" : 26.8512333197085,
                  "lng" : 75.8097959697085
               }
            }
         },
         "icon" : "https://maps.gstatic.com/mapfiles/place_api/icons/doctor-71.png",
         "id" : "1894f0ba0ffa2de1b72e2f577a1c0b92805af511",
         "name" : "Dr. B. Lal Clinical Laboratory",
         "opening_hours" : {
            "open_now" : true,
            "weekday_text" : []
         },
         "place_id" : "ChIJh2oDwHS2bTkRXxrh1TZt5LA",
         "reference" : "CmRSAAAAZSNduWD04jojv0VljbKgLNgJxG42pttHimX4y3m0KbJiNWjkB1MzbzngKanA6iSMTAmkMhT94UdA16MUjvH46hYBDfXJewquWbDJ-x3CXF7eyOC3Zdj1jGBwrmk7x79AEhB2isRxt3PI3I8FDvADT3WCGhQIfM4gyuLVAAg2YLGdeK9UMYGhXQ",
         "scope" : "GOOGLE",
         "types" : [ "hospital", "point_of_interest", "establishment" ],
         "vicinity" : "B-424, Pradhan Marg, Block B, Vidyut Abhiyanta Colony, Sector 4, Malviya Nagar, Jaipur"
      },
      {
         "geometry" : {
            "location" : {
               "lat" : 26.850904,
               "lng" : 75.810463
            },
            "viewport" : {
               "northeast" : {
                  "lat" : 26.8522529802915,
                  "lng" : 75.81181198029151
               },
               "southwest" : {
                  "lat" : 26.84955501970849,
                  "lng" : 75.8091140197085
               }
            }
         },
         "icon" : "https://maps.gstatic.com/mapfiles/place_api/icons/generic_business-71.png",
         "id" : "3b9df4496f90beb27ac7b5b348e4767335c54b61",
         "name" : "Yourdentist",
         "opening_hours" : {
            "open_now" : true,
            "weekday_text" : []
         },
         "photos" : [
            {
               "height" : 529,
               "html_attributions" : [
                  "\u003ca href=\"https://maps.google.com/maps/contrib/107379914529790215489/photos\"\u003eYourdentist\u003c/a\u003e"
               ],
               "photo_reference" : "CmRaAAAAa-mDNpJ_iq4080PgC0ZVEMl88fiWDWuNK-4AGdEugi8YmnDpodP0-BHqiTaeHpZO1YGMCVHdgn9xVccXb7zdEfPNskDpsXvy8fJdSPz7CpTolHqjtfC4fvnH1ebeOWtTEhAVcZWfKGyH-NoCcQlcY2yYGhSZpEINKCMEdqkCj7xSSoGUG48aqg",
               "width" : 530
            }
         ],
         "place_id" : "ChIJG-hWxgu2bTkRwmY5QUYXHuc",
         "rating" : 4.3,
         "reference" : "CmRSAAAAg8ZYKSGeWbUEjr9reoMP1RcI15vH9FRyAq_IalRr1NboweE1tV_4DCib7oov2yCmpogeII6WhcjQnoWjQjR8XljsAxHN6S0Q9qfv5bxE8YeXhYiFp5e_wcToRacN5Ca9EhCDL9rQ8cdC1U4hXCpVa26qGhQ0UKAghhPPznJUcDqTDVlrCSA9sw",
         "scope" : "GOOGLE",
         "types" : [ "dentist", "hospital", "health", "point_of_interest", "establishment" ],
         "vicinity" : "Your Dentist, D-670 D Block Malviyanagar, Jaipur"
      },
      {
         "geometry" : {
            "location" : {
               "lat" : 26.85120390000001,
               "lng" : 75.81214279999999
            },
            "viewport" : {
               "northeast" : {
                  "lat" : 26.85255288029151,
                  "lng" : 75.8134917802915
               },
               "southwest" : {
                  "lat" : 26.8498549197085,
                  "lng" : 75.81079381970849
               }
            }
         },
         "icon" : "https://maps.gstatic.com/mapfiles/place_api/icons/doctor-71.png",
         "id" : "15c1a88f1ef7b62c4202d233695caa109de54b5f",
         "name" : "Urology & Medical Care Centre",
         "place_id" : "ChIJywXnUgu2bTkRTfCgMgFeKnA",
         "reference" : "CmRRAAAAW7ryGCrS_A5bJKtG_mKCbHjE-AZ1VSq3sGNFC-ywFXlBkZCAl6peUcd_xT8c3fgZTXzsUyICYlJEqSOrvqwQQcWz45BrEUQlJzQEkpclsE6WkuaAPh98bShCiWWpmEfwEhDe4JOrt33FGEHcIT7s1yopGhS-qHFe2B4Bl3E_3hNIMHqpGjxdFQ",
         "scope" : "GOOGLE",
         "types" : [ "hospital", "point_of_interest", "establishment" ],
         "vicinity" : "E-2, Pradhan Marg, Malviya Nagar, Jaipur"
      },
      {
         "geometry" : {
            "location" : {
               "lat" : 26.854959,
               "lng" : 75.81295900000001
            },
            "viewport" : {
               "northeast" : {
                  "lat" : 26.8563079802915,
                  "lng" : 75.8143079802915
               },
               "southwest" : {
                  "lat" : 26.85361001970849,
                  "lng" : 75.8116100197085
               }
            }
         },
         "icon" : "https://maps.gstatic.com/mapfiles/place_api/icons/doctor-71.png",
         "id" : "c76b82260b7cfadc7034358de6d4e7a5c1a68073",
         "name" : "Gupta Medical Stores",
         "opening_hours" : {
            "open_now" : true,
            "weekday_text" : []
         },
         "photos" : [
            {
               "height" : 270,
               "html_attributions" : [
                  "\u003ca href=\"https://maps.google.com/maps/contrib/116297838456186063580/photos\"\u003eGupta Medical Stores\u003c/a\u003e"
               ],
               "photo_reference" : "CmRaAAAAe0rMFQ99oJewg9y62l3-YVlFz4A5SzQlxdlqVQ2EtJsK99Ruszr3VGRWDYCnknBTMzyhFgNq9_J5gBAQabZ6aKqvhhomGg8e6QZleFYjB1pAx3_tLMTd0AMT4oXojEpGEhB-vHRAQKkBsPN7NmXaeuNwGhQm74BNnrMYia3Vd9nP7LwoVKaqpg",
               "width" : 270
            }
         ],
         "place_id" : "ChIJ-UwkhnO2bTkR-XQ0IZCadIU",
         "reference" : "CmRSAAAAz_YfBBZteDmB-1aJE4mbs4YWxUYGwgjU3pVV9z8k82-0WpCbl-vtwKl3_w8Pfq6fmQcKybPz92f7I27TgfB58nQOIC2yFmf_sUOFpPbxmXT6Ued-enoKgAhpIO3HtmQjEhAew93GXRerLaEnGNNZOKkWGhSRx_y4lBMdxPyk93FtaOVcMpJGhA",
         "scope" : "GOOGLE",
         "types" : [ "hospital", "point_of_interest", "establishment" ],
         "vicinity" : "Shop No B 7 Kardhani Shopping Centre Hari Marg, Malviya Nagar Jaipur, Jaipur"
      },
      {
         "geometry" : {
            "location" : {
               "lat" : 26.854921,
               "lng" : 75.813174
            },
            "viewport" : {
               "northeast" : {
                  "lat" : 26.8562699802915,
                  "lng" : 75.81452298029151
               },
               "southwest" : {
                  "lat" : 26.8535720197085,
                  "lng" : 75.81182501970851
               }
            }
         },
         "icon" : "https://maps.gstatic.com/mapfiles/place_api/icons/doctor-71.png",
         "id" : "4a1a0846637cac014f0d9b38afc1e6fab137e582",
         "name" : "V.N Medicals",
         "opening_hours" : {
            "open_now" : true,
            "weekday_text" : []
         },
         "photos" : [
            {
               "height" : 251,
               "html_attributions" : [
                  "\u003ca href=\"https://maps.google.com/maps/contrib/100680023504745012656/photos\"\u003eV.N Medicals\u003c/a\u003e"
               ],
               "photo_reference" : "CmRaAAAAqrYv5E7mAZvKapFD3Z7iQSUZs8M7RKpBIWEK40FtaFtXP_0IBeOgpmoJfJl0umC1jKEuJ_-3bvCeu4Y31MoOassmQORT_IPKviucdd1lxbhjFA0aXjpib3FsQKXnW5-jEhDuyQPVO_O0_K13LfQ4NRSJGhSlWCFqS3h-T821vmRf2ey39NlbLw",
               "width" : 251
            }
         ],
         "place_id" : "ChIJVVWVhXO2bTkRgXbw1UNiwSc",
         "reference" : "CmRRAAAAjbF_wT9gnp6K30IwppxfxprWqDIi_GEGW6Dg6cCnnzIAU3YTxV269S7IZZOeDy5FZzybzrsK68EwO2YU0aooKLE5IRzkmjJJUMz0WANmSF_FzMrP-PHiGm-q-tR21RJmEhCdsYOWXMpRJyznPOgKGjM_GhTOQJbyJR_sdTvr_SRmqBcDAMdUDw",
         "scope" : "GOOGLE",
         "types" : [ "hospital", "point_of_interest", "establishment" ],
         "vicinity" : "Kardhani Shopping Centre, Malviya Nagar, Jaipur"
      },
      {
         "geometry" : {
            "location" : {
               "lat" : 26.854666,
               "lng" : 75.81377599999999
            },
            "viewport" : {
               "northeast" : {
                  "lat" : 26.8559428302915,
                  "lng" : 75.81504733029149
               },
               "southwest" : {
                  "lat" : 26.8532448697085,
                  "lng" : 75.81234936970849
               }
            }
         },
         "icon" : "https://maps.gstatic.com/mapfiles/place_api/icons/doctor-71.png",
         "id" : "3c4201bc12cd18e79bc2f6f2d335ca2df2244050",
         "name" : "Batra Medicos",
         "opening_hours" : {
            "open_now" : true,
            "weekday_text" : []
         },
         "photos" : [
            {
               "height" : 257,
               "html_attributions" : [
                  "\u003ca href=\"https://maps.google.com/maps/contrib/105390751485650306751/photos\"\u003eBatra Medicos\u003c/a\u003e"
               ],
               "photo_reference" : "CmRaAAAAeG8i_GrdothuuqovRsTbIvskpOXqHtMe4bHXbiK-4QMFiGGl4dxGTSSnFyaj5CegWnN-c8yViphcTgOCXZZITTWZMcA5bcStiJtVkwCe49nJ5fhCKqcv22RR-cp-XqwuEhA_e3dl5MAzBMf7UX-PafkmGhSm-LPOEiiZcB7UiNQcMG3mpTEvWQ",
               "width" : 257
            }
         ],
         "place_id" : "ChIJRyobnHO2bTkRzQDeRebI9hc",
         "rating" : 2.7,
         "reference" : "CmRRAAAAsG3XjV2Kvc_0HPCov7NRJeANflAvy5eupvSP-sMvkiWR9qm99hmkq6AunTJoX0ZHqvJAY1eOBpzzvarKi1CVmjRU5HJWy6Y9eRfXmYUq9MF7sepRUKUlVJLLyjT2v4vkEhAYgqgIz23x4DgPldllmhmxGhSL_XjC7nBnR1rgVy9DE4rl4GfTWg",
         "scope" : "GOOGLE",
         "types" : [ "hospital", "point_of_interest", "establishment" ],
         "vicinity" : "Shop No B Kardhani Shopping Centre Jaipur, 10, Hari Marg, Block-B, Sector 4, Malviya Nagar, Jaipur"
      },
      {
         "geometry" : {
            "location" : {
               "lat" : 26.8524478,
               "lng" : 75.8118707
            },
            "viewport" : {
               "northeast" : {
                  "lat" : 26.85379678029151,
                  "lng" : 75.81321968029151
               },
               "southwest" : {
                  "lat" : 26.8510988197085,
                  "lng" : 75.8105217197085
               }
            }
         },
         "icon" : "https://maps.gstatic.com/mapfiles/place_api/icons/doctor-71.png",
         "id" : "f991e116e6870ccb5a4eb923eab0dd0ebf82d390",
         "name" : "Kothari Eye Hospital",
         "place_id" : "ChIJedHsvHS2bTkReV5_dOgQTfY",
         "reference" : "CmRSAAAAKOfzF1whIJbVQM4H9yw8gr7M23NKWoKdV87CtHERXZWiT5Dyu2t4FF3R9HeJZyWeSYv1Hk8QiN4_6GoJ-TwR0ZibAQKr0jIJG-Vm75PXXpGmQ5b-0z0iyvuIh80dzBK9EhCfUYDL95quXhpFY8avZXlsGhRkD-y8_EsT3WNaw8REUMj-sHWbPw",
         "scope" : "GOOGLE",
         "types" : [ "hospital", "point_of_interest", "establishment" ],
         "vicinity" : "B-392, Block B, Vidyut Abhiyanta Colony, Sector 4, Malviya Nagar, Jaipur"
      },
      {
         "geometry" : {
            "location" : {
               "lat" : 26.8559298,
               "lng" : 75.8144188
            },
            "viewport" : {
               "northeast" : {
                  "lat" : 26.8572787802915,
                  "lng" : 75.81576778029151
               },
               "southwest" : {
                  "lat" : 26.8545808197085,
                  "lng" : 75.8130698197085
               }
            }
         },
         "icon" : "https://maps.gstatic.com/mapfiles/place_api/icons/doctor-71.png",
         "id" : "934986c82542092267db8e0647d0dcb2ca469c6d",
         "name" : "Malviya Nagar and Sonography Centre",
         "opening_hours" : {
            "open_now" : true,
            "weekday_text" : []
         },
         "place_id" : "ChIJ7e6TwHO2bTkRn67swT6WE6o",
         "reference" : "CmRSAAAAKswEPtZwt6sq881vakBAOOQ07VgAX8Mz_o5Hondw23PUfajQyjl07qb51Gtcov7DiIglOyunDAYO25AR1FwSYM-Q4W813uH7tXj8o310QxKJ8uTjDJsIy8iFOqWkGDYPEhDERDwQEJxeO540rDn2dxe_GhRKaE09mx1gRED47VJ1D0J_MTf0YQ",
         "scope" : "GOOGLE",
         "types" : [ "hospital", "point_of_interest", "establishment" ],
         "vicinity" : "A-235, SHIVANAND MARG, Block-B, Malviya Nagar, Jaipur"
      },
      {
         "geometry" : {
            "location" : {
               "lat" : 26.8571917,
               "lng" : 75.8126972
            },
            "viewport" : {
               "northeast" : {
                  "lat" : 26.8585406802915,
                  "lng" : 75.81404618029151
               },
               "southwest" : {
                  "lat" : 26.8558427197085,
                  "lng" : 75.81134821970849
               }
            }
         },
         "icon" : "https://maps.gstatic.com/mapfiles/place_api/icons/doctor-71.png",
         "id" : "5ba59656e0c8b43e2cc3fead548cccb96799b5a8",
         "name" : "Bhargava Dr Gopal Swaroop",
         "place_id" : "ChIJAQAAAHS2bTkRQfkcsUcJOto",
         "reference" : "CmRSAAAA0VCKzhv1c_VtnDn9s1-Tja9O1cRafPTEuErMdRsUVymo7Ce-LTAvbVRD8b9nNKeCFGFxKWFJQuXpaACM-EabemPUFNqUKuQ_q7-w75arffHJouPVFcF_GNqGeCpSt6INEhDn2RwyC6XqVMDDhyvgoiqfGhTYhKIZ4OxNVNm0vGiluYXUm-dIJg",
         "scope" : "GOOGLE",
         "types" : [ "hospital", "health", "point_of_interest", "establishment" ],
         "vicinity" : "3/565, Malviya Nagar, Jaipur"
      },
      {
         "geometry" : {
            "location" : {
               "lat" : 26.8571917,
               "lng" : 75.8126972
            },
            "viewport" : {
               "northeast" : {
                  "lat" : 26.8585406802915,
                  "lng" : 75.81404618029151
               },
               "southwest" : {
                  "lat" : 26.8558427197085,
                  "lng" : 75.81134821970849
               }
            }
         },
         "icon" : "https://maps.gstatic.com/mapfiles/place_api/icons/doctor-71.png",
         "id" : "c4e1c0f23f2f91522e812a8acd6ff567414f971d",
         "name" : "Radha Govind Clinics",
         "place_id" : "ChIJAQAAAHS2bTkRK0wV_dp0HVs",
         "reference" : "CmRRAAAAm132htCcoyTkAqYOOshEJtRenyFcvOpLDZxsznMNYj1f3nlgEOz9kVxUazNajtKEP31SehzQmPJwmk7KDGDy-7nxNICdbB9l3jVR_64BeEXocFEspFCLjFMUEIcKSoRcEhCz6jhUU_srjXhKKgnlThPxGhT10PCSJfmk_ZuF8vt7hxXCdRz_Gw",
         "scope" : "GOOGLE",
         "types" : [ "hospital", "point_of_interest", "establishment" ],
         "vicinity" : "1/474, Malviya Nagar, Jaipur"
      },
      {
         "geometry" : {
            "location" : {
               "lat" : 26.8571917,
               "lng" : 75.8126972
            },
            "viewport" : {
               "northeast" : {
                  "lat" : 26.8585406802915,
                  "lng" : 75.81404618029151
               },
               "southwest" : {
                  "lat" : 26.8558427197085,
                  "lng" : 75.81134821970849
               }
            }
         },
         "icon" : "https://maps.gstatic.com/mapfiles/place_api/icons/doctor-71.png",
         "id" : "5bd59b49dbeb8c9606169964f7a474a3b98fe6d2",
         "name" : "Bansal Medicos & General Store",
         "place_id" : "ChIJAQAAAHS2bTkR_KKSOSyINVg",
         "reference" : "CmRRAAAAn2ua_9zsq1OCSRu8Q6TSrNYKdhA4dsANIVhBfxHeGGxLQNd1ojLemvkWmF5KUSZyH9vEV4CXWegL7bZqMNmTcjCB8suah4gahqKaHElHIe2d82dNMS89l7plW9YkZjTREhBgo1cxaxqp6-WebPRStShZGhQY50CqL68UliqpG0Zx8Oa_Z5dPog",
         "scope" : "GOOGLE",
         "types" : [ "hospital", "point_of_interest", "establishment" ],
         "vicinity" : "Shop No-1, Shopping Centre, Malviya Nagar, Malviya Nagar, Jaipur"
      },
      {
         "geometry" : {
            "location" : {
               "lat" : 26.8571917,
               "lng" : 75.8126972
            },
            "viewport" : {
               "northeast" : {
                  "lat" : 26.8585406802915,
                  "lng" : 75.81404618029151
               },
               "southwest" : {
                  "lat" : 26.8558427197085,
                  "lng" : 75.81134821970849
               }
            }
         },
         "icon" : "https://maps.gstatic.com/mapfiles/place_api/icons/doctor-71.png",
         "id" : "2cbca60fe69efe769f3bab380c52e22d879690fe",
         "name" : "B S Cosmetics",
         "place_id" : "ChIJAQAAAHS2bTkRIRYD1GIyEzo",
         "reference" : "CmRRAAAASrwhR_hKgwp_JM562_qW4K1n6Jnatk1Vdf-rB6iDqy0PAaQQAeefe3g2oZANiJIEwaaYXXw7Z3irReex4spFGSg7oATFvuC8NhAkn9fRTNTh79AjTCFFo9xNPwTogA8YEhALRQVCH_15G51i5fxkoLPxGhT_n6cECD9inwSr1FXgz4M2YUYG2g",
         "scope" : "GOOGLE",
         "types" : [ "hospital", "point_of_interest", "establishment" ],
         "vicinity" : "D-53, Siddarth Nagar, Malviya Nagar, Malviya Nagar, Jaipur"
      },
      {
         "geometry" : {
            "location" : {
               "lat" : 26.8571917,
               "lng" : 75.8126972
            },
            "viewport" : {
               "northeast" : {
                  "lat" : 26.8585406802915,
                  "lng" : 75.81404618029151
               },
               "southwest" : {
                  "lat" : 26.8558427197085,
                  "lng" : 75.81134821970849
               }
            }
         },
         "icon" : "https://maps.gstatic.com/mapfiles/place_api/icons/doctor-71.png",
         "id" : "1322162c83afc285d1d16508b02c6a5f242df27e",
         "name" : "Shubham Clinic",
         "place_id" : "ChIJAQAAAHS2bTkRtKuk1Y8B0jY",
         "reference" : "CmRRAAAAlDRUWSN_CPL0bOPcl9O10VFNNzaXBRNhtCKaPjZb1U7aWE0kh2zveBnJydgh4uxfQniZ-mKEkgzFZDMdlpU4QIZS4MoUZxXYmk6gFZk875emVVqlV5eLvVtHIrx1pSYIEhA7NXOFHVHPA1dFtXp63rJeGhQu3w7SpphloS3VdBwZ5oqreDgEEw",
         "scope" : "GOOGLE",
         "types" : [ "hospital", "point_of_interest", "establishment" ],
         "vicinity" : "11/726, Opposite Railway Line, Near Gaurav Tower, Malviya Nagar, Malviya Nagar, Jaipur"
      },
      {
         "geometry" : {
            "location" : {
               "lat" : 26.8571917,
               "lng" : 75.8126972
            },
            "viewport" : {
               "northeast" : {
                  "lat" : 26.8585406802915,
                  "lng" : 75.81404618029151
               },
               "southwest" : {
                  "lat" : 26.8558427197085,
                  "lng" : 75.81134821970849
               }
            }
         },
         "icon" : "https://maps.gstatic.com/mapfiles/place_api/icons/doctor-71.png",
         "id" : "0c110391df9747071453f4e87e474b81cc0682fa",
         "name" : "Dr J N Mathur",
         "place_id" : "ChIJ_xuNhHS2bTkRsD15fZD7zB4",
         "reference" : "CmRRAAAAMzt25p3GJZqbBfLIAJMsCJoGWVFN_6PBUmqSUmg1-NJxLB7OWLbm5XiSi7ZLwdgXvaKj1tN2isTga8csv1tq4OODmzs6bJJzSKRCO4BCrKNZjAJ3lNT5x970kQv0LTkFEhD4ILf1VATg65718mj_RUaaGhR8Ixl1Z7kp20hN7-WqiMJxgHPZjA",
         "scope" : "GOOGLE",
         "types" : [ "hospital", "point_of_interest", "establishment" ],
         "vicinity" : "B-237, Malviya Nagar, Jaipur"
      },
      {
         "geometry" : {
            "location" : {
               "lat" : 26.8571917,
               "lng" : 75.8126972
            },
            "viewport" : {
               "northeast" : {
                  "lat" : 26.8585406802915,
                  "lng" : 75.81404618029151
               },
               "southwest" : {
                  "lat" : 26.8558427197085,
                  "lng" : 75.81134821970849
               }
            }
         },
         "icon" : "https://maps.gstatic.com/mapfiles/place_api/icons/doctor-71.png",
         "id" : "618cc72e219379c9640c8224fa2690b640bf927e",
         "name" : "Gautam Clinic",
         "place_id" : "ChIJAQAAAHS2bTkRly-doze_HAs",
         "rating" : 5,
         "reference" : "CmRRAAAAWbQnMtw-_Nlx7Y7C8yDk03XdSHFtMNKEHa_3zfVHwRLQQk_3477wQyAsWQlaodz91dLRAMctnkAhRzoDjGj1EDMTOg43bMphLZv1B0V6W4P-Wp7snd9MD28w99BcUgWhEhAM5o8zLaXtqCIEUisVELEAGhRiZmRMOJFi6ga5hbt4hUTKawXPqg",
         "scope" : "GOOGLE",
         "types" : [ "hospital", "point_of_interest", "establishment" ],
         "vicinity" : "11/679, Opposite Railway Line, Malviya Nagar, Malviya Nagar, Jaipur"
      },
      {
         "geometry" : {
            "location" : {
               "lat" : 26.85120390000001,
               "lng" : 75.81214279999999
            },
            "viewport" : {
               "northeast" : {
                  "lat" : 26.85255288029151,
                  "lng" : 75.8134917802915
               },
               "southwest" : {
                  "lat" : 26.8498549197085,
                  "lng" : 75.81079381970849
               }
            }
         },
         "icon" : "https://maps.gstatic.com/mapfiles/place_api/icons/doctor-71.png",
         "id" : "69ec9928dc86efd8cfdc26d0a81c1fa9c3d3c2a3",
         "name" : "Mobi Surgical Unit",
         "place_id" : "ChIJywXnUgu2bTkRTE39eji6E-0",
         "reference" : "CmRSAAAAeF5vNAsin1ydBoVLsJoT3D33h8uCqqrAehMRPKZt25j1nAh-J9XE0nxDAOY8cuBCu9fDw9YadbnQvzy4009UseqUzPa3o73hjFOggTVlXqe_OHPBST3_F0Sf5_C74vXoEhAWGXiz0i-yu2tz-T3p71xAGhQaZrHHtcJVSv-O-rDhrQPZHHk-sA",
         "scope" : "GOOGLE",
         "types" : [ "hospital", "point_of_interest", "establishment" ],
         "vicinity" : "4/447, Pradhan Marg, Malviya Nagar, Malviya Nagar, Jaipur"
      },
      {
         "geometry" : {
            "location" : {
               "lat" : 26.8575936,
               "lng" : 75.81322729999999
            },
            "viewport" : {
               "northeast" : {
                  "lat" : 26.8589885302915,
                  "lng" : 75.81459198029151
               },
               "southwest" : {
                  "lat" : 26.8562905697085,
                  "lng" : 75.8118940197085
               }
            }
         },
         "icon" : "https://maps.gstatic.com/mapfiles/place_api/icons/doctor-71.png",
         "id" : "ab69648ba3bbd7057f7b10bd1ae0f9a66b4d6e39",
         "name" : "Agrasen Orthopaedic Hospital",
         "opening_hours" : {
            "open_now" : true,
            "weekday_text" : []
         },
         "place_id" : "ChIJAQAAAHS2bTkR74XHdQKO4DY",
         "reference" : "CmRRAAAA_X0WI3J983xVmit7QIwDGjcV_xXZmpQltow47BEEZw3NtMzqRGYopcmVLw_m7g2IQ39sVa4qwsKAaj1TrYZz_59mbfnRa3utSm7SMH0ZbT4VX0MhxRkoPe6iw12DgGKrEhBQUtFOdmv_0uh4V-1j8uM_GhQafJgLPcONetkloreIRhfEC2vx_g",
         "scope" : "GOOGLE",
         "types" : [ "hospital", "health", "point_of_interest", "establishment" ],
         "vicinity" : "Calgiri Marg, Malviya Nagar, Jaipur"
      }
   ],
   "status" : "OK"
}
